{
  "call-_+12013444638_TEST": {
    "id": "bharat-bistro-001",
    "name": "Bharat Bistro",
    "phone": "+12013444638",
    "slug": "bharat-bistro",
    "clover": {
      "merchantId": "AY9ARGETAKY31",
      "apiKey": "07b98824-f00e-384e-0649-3296b2c8cdfd",
      "ecommToken": null,
      "environment": "production"
    },
    "location": {
      "address": "123 Main Street",
      "city": "Jersey City",
      "state": "NJ",
      "zipCode": "07302",
      "country": "US"
    },
    "cuisineType": "Indian",
    "logo": null,
    "primaryColor": null,
    "voiceSelection": "alloy",
    "greeting": "Hi Thank you for your call how can i help you",
    "printing": {
      "autoPrint": true,
      "defaultPrinterId": null,
      "deviceId": null,
      "printers": []
    },
    "info": "Bharat Bistro in Jersey City, NJ",
    "instructions": "You are a helpful assistant at Bharat Bistro, specializing in Indian cuisine."
  },
  "call-_+12013444638_54ixLfCDo6kj": {
    "id": "bharat-bistro-001",
    "name": "Bharat Bistro",
    "phone": "+12013444638",
    "slug": "bharat-bistro",
    "clover": {
      "merchantId": "AY9ARGETAKY31",
      "apiKey": "07b98824-f00e-384e-0649-3296b2c8cdfd",
      "ecommToken": null,
      "environment": "production"
    },
    "location": {
      "address": "123 Main Street",
      "city": "Jersey City",
      "state": "NJ",
      "zipCode": "07302",
      "country": "US"
    },
    "cuisineType": "Indian",
    "logo": null,
    "primaryColor": null,
    "voiceSelection": "alloy",
    "greeting": "Hi Thank you for your call how can i help you",
    "printing": {
      "autoPrint": true,
      "defaultPrinterId": null,
      "deviceId": null,
      "printers": []
    },
    "info": "Bharat Bistro in Jersey City, NJ",
    "instructions": "You are a helpful assistant at Bharat Bistro, specializing in Indian cuisine."
  },
  "call-_+12013444638_6PPzVEVzNeWh": {
    "id": "bharat-bistro-001",
    "name": "Bharat Bistro",
    "phone": "+12013444638",
    "slug": "bharat-bistro",
    "clover": {
      "merchantId": "AY9ARGETAKY31",
      "apiKey": "07b98824-f00e-384e-0649-3296b2c8cdfd",
      "ecommToken": null,
      "environment": "production"
    },
    "location": {
      "address": "123 Main Street",
      "city": "Jersey City",
      "state": "NJ",
      "zipCode": "07302",
      "country": "US"
    },
    "cuisineType": "Indian",
    "logo": null,
    "primaryColor": null,
    "voiceSelection": "alloy",
    "greeting": "Hi Thank you for your call how can i help you",
    "printing": {
      "autoPrint": true,
      "defaultPrinterId": null,
      "deviceId": null,
      "printers": []
    },
    "info": "Bharat Bistro in Jersey City, NJ",
    "instructions": "You are a helpful assistant at Bharat Bistro, specializing in Indian cuisine."
  },
  "call-_+12013444638_TEST_eqk8k": {
    "id": "bharat-bistro-001",
    "name": "Bharat Bistro",
    "phone": "+12013444638",
    "slug": "bharat-bistro",
    "clover": {
      "merchantId": "AY9ARGETAKY31",
      "apiKey": "07b98824-f00e-384e-0649-3296b2c8cdfd",
      "ecommToken": null,
      "environment": "production"
    },
    "location": {
      "address": "123 Main Street",
      "city": "Jersey City",
      "state": "NJ",
      "zipCode": "07302",
      "country": "US"
    },
    "cuisineType": "Indian",
    "logo": null,
    "primaryColor": null,
    "voiceSelection": "alloy",
    "greeting": "Hi Thank you for your call how can i help you",
    "printing": {
      "autoPrint": true,
      "defaultPrinterId": null,
      "deviceId": null,
      "printers": []
    },
    "info": "Bharat Bistro in Jersey City, NJ",
    "instructions": "You are a helpful assistant at Bharat Bistro, specializing in Indian cuisine."
  },
  "call-_+12013444638_TEST_45molo": {
    "id": "bharat-bistro-001",
    "name": "Bharat Bistro",
    "phone": "+12013444638",
    "slug": "bharat-bistro",
    "clover": {
      "merchantId": "AY9ARGETAKY31",
      "apiKey": "07b98824-f00e-384e-0649-3296b2c8cdfd",
      "ecommToken": null,
      "environment": "production"
    },
    "location": {
      "address": "123 Main Street",
      "city": "Jersey City",
      "state": "NJ",
      "zipCode": "07302",
      "country": "US"
    },
    "cuisineType": "Indian",
    "logo": null,
    "primaryColor": null,
    "voiceSelection": "alloy",
    "greeting": "Hi Thank you for your call how can i help you",
    "printing": {
      "autoPrint": true,
      "defaultPrinterId": null,
      "deviceId": null,
      "printers": []
    },
    "info": "Bharat Bistro in Jersey City, NJ",
    "instructions": "You are a helpful assistant at Bharat Bistro, specializing in Indian cuisine."
  },
  "call-_+12013444638_TEST_u3nphcpn": {
    "id": "bharat-bistro-001",
    "name": "Bharat Bistro",
    "phone": "+12013444638",
    "slug": "bharat-bistro",
    "clover": {
      "merchantId": "AY9ARGETAKY31",
      "apiKey": "07b98824-f00e-384e-0649-3296b2c8cdfd",
      "ecommToken": null,
      "environment": "production"
    },
    "location": {
      "address": "123 Main Street",
      "city": "Jersey City",
      "state": "NJ",
      "zipCode": "07302",
      "country": "US"
    },
    "cuisineType": "Indian",
    "logo": null,
    "primaryColor": null,
    "voiceSelection": "alloy",
    "greeting": "Hi Thank you for your call how can i help you",
    "printing": {
      "autoPrint": true,
      "defaultPrinterId": null,
      "deviceId": null,
      "printers": []
    },
    "info": "Bharat Bistro in Jersey City, NJ",
    "instructions": "You are a helpful assistant at Bharat Bistro, specializing in Indian cuisine."
  },
  "call-_+12013444638_TEST_12dmyv": {
    "id": "bharat-bistro-001",
    "name": "Bharat Bistro",
    "phone": "+12013444638",
    "slug": "bharat-bistro",
    "clover": {
      "merchantId": "AY9ARGETAKY31",
      "apiKey": "07b98824-f00e-384e-0649-3296b2c8cdfd",
      "ecommToken": null,
      "environment": "production"
    },
    "location": {
      "address": "123 Main Street",
      "city": "Jersey City",
      "state": "NJ",
      "zipCode": "07302",
      "country": "US"
    },
    "cuisineType": "Indian",
    "logo": null,
    "primaryColor": null,
    "voiceSelection": "alloy",
    "greeting": "Hi Thank you for your call how can i help you",
    "printing": {
      "autoPrint": true,
      "defaultPrinterId": null,
      "deviceId": null,
      "printers": []
    },
    "info": "Bharat Bistro in Jersey City, NJ",
    "instructions": "You are a helpful assistant at Bharat Bistro, specializing in Indian cuisine."
  },
  "call-_+12013444638_TEST_kjol5q": {
    "id": "bharat-bistro-001",
    "name": "Bharat Bistro",
    "phone": "+12013444638",
    "slug": "bharat-bistro",
    "clover": {
      "merchantId": "AY9ARGETAKY31",
      "apiKey": "07b98824-f00e-384e-0649-3296b2c8cdfd",
      "ecommToken": null,
      "environment": "production"
    },
    "location": {
      "address": "123 Main Street",
      "city": "Jersey City",
      "state": "NJ",
      "zipCode": "07302",
      "country": "US"
    },
    "cuisineType": "Indian",
    "logo": null,
    "primaryColor": null,
    "voiceSelection": "alloy",
    "greeting": "Hi Thank you for your call how can i help you",
    "printing": {
      "autoPrint": true,
      "defaultPrinterId": null,
      "deviceId": null,
      "printers": []
    },
    "info": "Bharat Bistro in Jersey City, NJ",
    "instructions": "You are a helpful assistant at Bharat Bistro, specializing in Indian cuisine."
  },
  "call-_+12013444638_TEST_m8oobp": {
    "id": "bharat-bistro-001",
    "name": "Bharat Bistro",
    "phone": "+12013444638",
    "slug": "bharat-bistro",
    "clover": {
      "merchantId": "AY9ARGETAKY31",
      "apiKey": "07b98824-f00e-384e-0649-3296b2c8cdfd",
      "ecommToken": null,
      "environment": "production"
    },
    "location": {
      "address": "123 Main Street",
      "city": "Jersey City",
      "state": "NJ",
      "zipCode": "07302",
      "country": "US"
    },
    "cuisineType": "Indian",
    "logo": null,
    "primaryColor": null,
    "voiceSelection": "alloy",
    "greeting": "Hi Thank you for your call how can i help you",
    "printing": {
      "autoPrint": true,
      "defaultPrinterId": null,
      "deviceId": null,
      "printers": []
    },
    "info": "Bharat Bistro in Jersey City, NJ",
    "instructions": "You are a helpful assistant at Bharat Bistro, specializing in Indian cuisine."
  },
  "call-_+12013444638_TEST_4qnkgv": {
    "id": "bharat-bistro-001",
    "name": "Bharat Bistro",
    "phone": "+12013444638",
    "slug": "bharat-bistro",
    "clover": {
      "merchantId": "AY9ARGETAKY31",
      "apiKey": "07b98824-f00e-384e-0649-3296b2c8cdfd",
      "ecommToken": null,
      "environment": "production"
    },
    "location": {
      "address": "123 Main Street",
      "city": "Jersey City",
      "state": "NJ",
      "zipCode": "07302",
      "country": "US"
    },
    "cuisineType": "Indian",
    "logo": null,
    "primaryColor": null,
    "voiceSelection": "alloy",
    "greeting": "Hi Thank you for your call how can i help you",
    "printing": {
      "autoPrint": true,
      "defaultPrinterId": null,
      "deviceId": null,
      "printers": []
    },
    "info": "Bharat Bistro in Jersey City, NJ",
    "instructions": "You are a helpful assistant at Bharat Bistro, specializing in Indian cuisine."
  },
  "call-_+12013444638_TEST_w21fj": {
    "id": "bharat-bistro-001",
    "name": "Bharat Bistro",
    "phone": "+12013444638",
    "slug": "bharat-bistro",
    "clover": {
      "merchantId": "AY9ARGETAKY31",
      "apiKey": "07b98824-f00e-384e-0649-3296b2c8cdfd",
      "ecommToken": null,
      "environment": "production"
    },
    "location": {
      "address": "123 Main Street",
      "city": "Jersey City",
      "state": "NJ",
      "zipCode": "07302",
      "country": "US"
    },
    "cuisineType": "Indian",
    "logo": null,
    "primaryColor": null,
    "voiceSelection": "alloy",
    "greeting": "Hi Thank you for your call how can i help you",
    "printing": {
      "autoPrint": true,
      "defaultPrinterId": null,
      "deviceId": null,
      "printers": []
    },
    "info": "Bharat Bistro in Jersey City, NJ",
    "instructions": "You are a helpful assistant at Bharat Bistro, specializing in Indian cuisine."
  },
  "call-_+12013444638_TEST_brm9iq": {
    "id": "bharat-bistro-001",
    "name": "Bharat Bistro",
    "phone": "+12013444638",
    "slug": "bharat-bistro",
    "clover": {
      "merchantId": "AY9ARGETAKY31",
      "apiKey": "07b98824-f00e-384e-0649-3296b2c8cdfd",
      "ecommToken": null,
      "environment": "production"
    },
    "location": {
      "address": "123 Main Street",
      "city": "Jersey City",
      "state": "NJ",
      "zipCode": "07302",
      "country": "US"
    },
    "cuisineType": "Indian",
    "logo": null,
    "primaryColor": null,
    "voiceSelection": "alloy",
    "greeting": "Hi Thank you for your call how can i help you",
    "printing": {
      "autoPrint": true,
      "defaultPrinterId": null,
      "deviceId": null,
      "printers": []
    },
    "info": "Bharat Bistro in Jersey City, NJ",
    "instructions": "You are a helpful assistant at Bharat Bistro, specializing in Indian cuisine."
  },
  "call-_+12013444638_TEST_4u4mj": {
    "id": "bharat-bistro-001",
    "name": "Bharat Bistro",
    "phone": "+12013444638",
    "slug": "bharat-bistro",
    "clover": {
      "merchantId": "AY9ARGETAKY31",
      "apiKey": "07b98824-f00e-384e-0649-3296b2c8cdfd",
      "ecommToken": null,
      "environment": "production"
    },
    "location": {
      "address": "123 Main Street",
      "city": "Jersey City",
      "state": "NJ",
      "zipCode": "07302",
      "country": "US"
    },
    "cuisineType": "Indian",
    "logo": null,
    "primaryColor": null,
    "voiceSelection": "alloy",
    "greeting": "Hi Thank you for your call how can i help you",
    "printing": {
      "autoPrint": true,
      "defaultPrinterId": null,
      "deviceId": null,
      "printers": []
    },
    "info": "Bharat Bistro in Jersey City, NJ",
    "instructions": "You are a helpful assistant at Bharat Bistro, specializing in Indian cuisine."
  },
  "call-_+12013444638_TEST_yn1llj": {
    "id": "bharat-bistro-001",
    "name": "Bharat Bistro",
    "phone": "+12013444638",
    "slug": "bharat-bistro",
    "clover": {
      "merchantId": "AY9ARGETAKY31",
      "apiKey": "07b98824-f00e-384e-0649-3296b2c8cdfd",
      "ecommToken": null,
      "environment": "production"
    },
    "location": {
      "address": "123 Main Street",
      "city": "Jersey City",
      "state": "NJ",
      "zipCode": "07302",
      "country": "US"
    },
    "cuisineType": "Indian",
    "logo": null,
    "primaryColor": null,
    "voiceSelection": "alloy",
    "greeting": "Hi Thank you for your call how can i help you",
    "printing": {
      "autoPrint": true,
      "defaultPrinterId": null,
      "deviceId": null,
      "printers": []
    },
    "info": "Bharat Bistro in Jersey City, NJ",
    "instructions": "You are a helpful assistant at Bharat Bistro, specializing in Indian cuisine."
  },
  "call-_+12013444638_TEST_n32p4f": {
    "id": "bharat-bistro-001",
    "name": "Bharat Bistro",
    "phone": "+12013444638",
    "slug": "bharat-bistro",
    "clover": {
      "merchantId": "AY9ARGETAKY31",
      "apiKey": "07b98824-f00e-384e-0649-3296b2c8cdfd",
      "ecommToken": null,
      "environment": "production"
    },
    "location": {
      "address": "123 Main Street",
      "city": "Jersey City",
      "state": "NJ",
      "zipCode": "07302",
      "country": "US"
    },
    "cuisineType": "Indian",
    "logo": null,
    "primaryColor": null,
    "voiceSelection": "alloy",
    "greeting": "Hi Thank you for your call how can i help you",
    "printing": {
      "autoPrint": true,
      "defaultPrinterId": null,
      "deviceId": null,
      "printers": []
    },
    "info": "Bharat Bistro in Jersey City, NJ",
    "instructions": "You are a helpful assistant at Bharat Bistro, specializing in Indian cuisine."
  },
  "call-_+12013444638_TEST_n2ibp": {
    "id": "bharat-bistro-001",
    "name": "Bharat Bistro",
    "phone": "+12013444638",
    "slug": "bharat-bistro",
    "clover": {
      "merchantId": "AY9ARGETAKY31",
      "apiKey": "07b98824-f00e-384e-0649-3296b2c8cdfd",
      "ecommToken": null,
      "environment": "production"
    },
    "location": {
      "address": "123 Main Street",
      "city": "Jersey City",
      "state": "NJ",
      "zipCode": "07302",
      "country": "US"
    },
    "cuisineType": "Indian",
    "logo": null,
    "primaryColor": null,
    "voiceSelection": "alloy",
    "greeting": "Hi Thank you for your call how can i help you",
    "printing": {
      "autoPrint": true,
      "defaultPrinterId": null,
      "deviceId": null,
      "printers": []
    },
    "info": "Bharat Bistro in Jersey City, NJ",
    "instructions": "You are a helpful assistant at Bharat Bistro, specializing in Indian cuisine."
  },
  "call-_+12013444638_TEST_2sa6re": {
    "id": "bharat-bistro-001",
    "name": "Bharat Bistro",
    "phone": "+12013444638",
    "slug": "bharat-bistro",
    "clover": {
      "merchantId": "AY9ARGETAKY31",
      "apiKey": "07b98824-f00e-384e-0649-3296b2c8cdfd",
      "ecommToken": null,
      "environment": "production"
    },
    "location": {
      "address": "123 Main Street",
      "city": "Jersey City",
      "state": "NJ",
      "zipCode": "07302",
      "country": "US"
    },
    "cuisineType": "Indian",
    "logo": null,
    "primaryColor": null,
    "voiceSelection": "alloy",
    "greeting": "Hi Thank you for your call how can i help you",
    "printing": {
      "autoPrint": true,
      "defaultPrinterId": null,
      "deviceId": null,
      "printers": []
    },
    "info": "Bharat Bistro in Jersey City, NJ",
    "instructions": "You are a helpful assistant at Bharat Bistro, specializing in Indian cuisine."
  },
  "call-_+12013444638_TEST_n8b568": {
    "id": "bharat-bistro-001",
    "name": "Bharat Bistro",
    "phone": "+12013444638",
    "slug": "bharat-bistro",
    "clover": {
      "merchantId": "AY9ARGETAKY31",
      "apiKey": "07b98824-f00e-384e-0649-3296b2c8cdfd",
      "ecommToken": null,
      "environment": "production"
    },
    "location": {
      "address": "123 Main Street",
      "city": "Jersey City",
      "state": "NJ",
      "zipCode": "07302",
      "country": "US"
    },
    "cuisineType": "Indian",
    "logo": null,
    "primaryColor": null,
    "voiceSelection": "alloy",
    "greeting": "Hi Thank you for your call how can i help you",
    "printing": {
      "autoPrint": true,
      "defaultPrinterId": null,
      "deviceId": null,
      "printers": []
    },
    "info": "Bharat Bistro in Jersey City, NJ",
    "instructions": "You are a helpful assistant at Bharat Bistro, specializing in Indian cuisine."
  },
  "call-_+12013444638_TEST_ovzv9": {
    "id": "bharat-bistro-001",
    "name": "Bharat Bistro",
    "phone": "+12013444638",
    "slug": "bharat-bistro",
    "clover": {
      "merchantId": "AY9ARGETAKY31",
      "apiKey": "07b98824-f00e-384e-0649-3296b2c8cdfd",
      "ecommToken": null,
      "environment": "production"
    },
    "location": {
      "address": "123 Main Street",
      "city": "Jersey City",
      "state": "NJ",
      "zipCode": "07302",
      "country": "US"
    },
    "cuisineType": "Indian",
    "logo": null,
    "primaryColor": null,
    "voiceSelection": "alloy",
    "greeting": "Hi Thank you for your call how can i help you",
    "printing": {
      "autoPrint": true,
      "defaultPrinterId": null,
      "deviceId": null,
      "printers": []
    },
    "info": "Bharat Bistro in Jersey City, NJ",
    "instructions": "You are a helpful assistant at Bharat Bistro, specializing in Indian cuisine."
  },
  "call-_+12013444638_TEST_teibxf": {
    "id": "bharat-bistro-001",
    "name": "Bharat Bistro",
    "phone": "+12013444638",
    "slug": "bharat-bistro",
    "clover": {
      "merchantId": "AY9ARGETAKY31",
      "apiKey": "07b98824-f00e-384e-0649-3296b2c8cdfd",
      "ecommToken": null,
      "environment": "production"
    },
    "location": {
      "address": "123 Main Street",
      "city": "Jersey City",
      "state": "NJ",
      "zipCode": "07302",
      "country": "US"
    },
    "cuisineType": "Indian",
    "logo": null,
    "primaryColor": null,
    "voiceSelection": "alloy",
    "greeting": "Hi Thank you for your call how can i help you",
    "printing": {
      "autoPrint": true,
      "defaultPrinterId": null,
      "deviceId": null,
      "printers": []
    },
    "info": "Bharat Bistro in Jersey City, NJ",
    "instructions": "You are a helpful assistant at Bharat Bistro, specializing in Indian cuisine."
  },
  "call-_+12013444638_TEST_wagok8": {
    "id": "bharat-bistro-001",
    "name": "Bharat Bistro",
    "phone": "+12013444638",
    "slug": "bharat-bistro",
    "clover": {
      "merchantId": "AY9ARGETAKY31",
      "apiKey": "07b98824-f00e-384e-0649-3296b2c8cdfd",
      "ecommToken": null,
      "environment": "production"
    },
    "location": {
      "address": "123 Main Street",
      "city": "Jersey City",
      "state": "NJ",
      "zipCode": "07302",
      "country": "US"
    },
    "cuisineType": "Indian",
    "logo": null,
    "primaryColor": null,
    "voiceSelection": "alloy",
    "greeting": "Hi Thank you for your call how can i help you",
    "printing": {
      "autoPrint": true,
      "defaultPrinterId": null,
      "deviceId": null,
      "printers": []
    },
    "info": "Bharat Bistro in Jersey City, NJ",
    "instructions": "You are a helpful assistant at Bharat Bistro, specializing in Indian cuisine."
  },
  "call-_+12013444638_TEST_lo6x9": {
    "id": "bharat-bistro-001",
    "name": "Bharat Bistro",
    "phone": "+12013444638",
    "slug": "bharat-bistro",
    "clover": {
      "merchantId": "AY9ARGETAKY31",
      "apiKey": "07b98824-f00e-384e-0649-3296b2c8cdfd",
      "ecommToken": null,
      "environment": "production"
    },
    "location": {
      "address": "123 Main Street",
      "city": "Jersey City",
      "state": "NJ",
      "zipCode": "07302",
      "country": "US"
    },
    "cuisineType": "Indian",
    "logo": null,
    "primaryColor": null,
    "voiceSelection": "alloy",
    "greeting": "Hi Thank you for your call how can i help you",
    "printing": {
      "autoPrint": true,
      "defaultPrinterId": null,
      "deviceId": null,
      "printers": []
    },
    "info": "Bharat Bistro in Jersey City, NJ",
    "instructions": "You are a helpful assistant at Bharat Bistro, specializing in Indian cuisine."
  },
  "call-_+12013444638_3BmvVbuNCWDr": {
    "id": "bharat-bistro-001",
    "name": "Bharat Bistro",
    "phone": "+12013444638",
    "slug": "bharat-bistro",
    "clover": {
      "merchantId": "AY9ARGETAKY31",
      "apiKey": "07b98824-f00e-384e-0649-3296b2c8cdfd",
      "ecommToken": null,
      "environment": "production"
    },
    "location": {
      "address": "123 Main Street",
      "city": "Jersey City",
      "state": "NJ",
      "zipCode": "07302",
      "country": "US"
    },
    "cuisineType": "Indian",
    "logo": null,
    "primaryColor": null,
    "voiceSelection": "alloy",
    "greeting": "Hi Thank you for your call how can i help you",
    "printing": {
      "autoPrint": true,
      "defaultPrinterId": null,
      "deviceId": null,
      "printers": []
    },
    "info": "Bharat Bistro in Jersey City, NJ",
    "instructions": "You are a helpful assistant at Bharat Bistro, specializing in Indian cuisine."
  },
  "call-_+12013444638_sTQcJoHJ7CEv": {
    "id": "bharat-bistro-001",
    "name": "Bharat Bistro",
    "phone": "+12013444638",
    "slug": "bharat-bistro",
    "clover": {
      "merchantId": "AY9ARGETAKY31",
      "apiKey": "07b98824-f00e-384e-0649-3296b2c8cdfd",
      "ecommToken": null,
      "environment": "production"
    },
    "location": {
      "address": "123 Main Street",
      "city": "Jersey City",
      "state": "NJ",
      "zipCode": "07302",
      "country": "US"
    },
    "cuisineType": "Indian",
    "logo": null,
    "primaryColor": null,
    "voiceSelection": "alloy",
    "greeting": "Hi Thank you for your call how can i help you",
    "printing": {
      "autoPrint": true,
      "defaultPrinterId": null,
      "deviceId": null,
      "printers": []
    },
    "info": "Bharat Bistro in Jersey City, NJ",
    "instructions": "You are a helpful assistant at Bharat Bistro, specializing in Indian cuisine."
  },
  "call-_+12013444638_TEST_axewvw": {
    "id": "bharat-bistro-001",
    "name": "Bharat Bistro",
    "phone": "+12013444638",
    "slug": "bharat-bistro",
    "clover": {
      "merchantId": "AY9ARGETAKY31",
      "apiKey": "07b98824-f00e-384e-0649-3296b2c8cdfd",
      "ecommToken": null,
      "environment": "production"
    },
    "location": {
      "address": "123 Main Street",
      "city": "Jersey City",
      "state": "NJ",
      "zipCode": "07302",
      "country": "US"
    },
    "cuisineType": "Indian",
    "logo": null,
    "primaryColor": null,
    "voiceSelection": "alloy",
    "greeting": "Hi Thank you for your call how can i help you",
    "printing": {
      "autoPrint": true,
      "defaultPrinterId": null,
      "deviceId": null,
      "printers": []
    },
    "info": "Bharat Bistro in Jersey City, NJ",
    "instructions": "You are a helpful assistant at Bharat Bistro, specializing in Indian cuisine."
  },
  "call-_+12013444638_pN9iXLGxb2Tk": {
    "id": "bharat-bistro-001",
    "name": "Bharat Bistro",
    "phone": "+12013444638",
    "slug": "bharat-bistro",
    "clover": {
      "merchantId": "AY9ARGETAKY31",
      "apiKey": "07b98824-f00e-384e-0649-3296b2c8cdfd",
      "ecommToken": null,
      "environment": "production"
    },
    "location": {
      "address": "123 Main Street",
      "city": "Jersey City",
      "state": "NJ",
      "zipCode": "07302",
      "country": "US"
    },
    "cuisineType": "Indian",
    "logo": null,
    "primaryColor": null,
    "voiceSelection": "alloy",
    "greeting": "Hi Thank you for your call how can i help you",
    "printing": {
      "autoPrint": true,
      "defaultPrinterId": null,
      "deviceId": null,
      "printers": []
    },
    "info": "Bharat Bistro in Jersey City, NJ",
    "instructions": "You are a helpful assistant at Bharat Bistro, specializing in Indian cuisine."
  },
  "call-_+12013444638_aqKmDtkKBZqV": {
    "id": "bharat-bistro-001",
    "name": "Bharat Bistro",
    "phone": "+12013444638",
    "slug": "bharat-bistro",
    "clover": {
      "merchantId": "AY9ARGETAKY31",
      "apiKey": "07b98824-f00e-384e-0649-3296b2c8cdfd",
      "ecommToken": null,
      "environment": "production"
    },
    "location": {
      "address": "123 Main Street",
      "city": "Jersey City",
      "state": "NJ",
      "zipCode": "07302",
      "country": "US"
    },
    "cuisineType": "Indian",
    "logo": null,
    "primaryColor": null,
    "voiceSelection": "alloy",
    "greeting": "Hi Thank you for your call how can i help you",
    "printing": {
      "autoPrint": true,
      "defaultPrinterId": null,
      "deviceId": null,
      "printers": []
    },
    "info": "Bharat Bistro in Jersey City, NJ",
    "instructions": "You are a helpful assistant at Bharat Bistro, specializing in Indian cuisine."
  },
  "call-_+12013444638_bbd98PrkZaEA": {
    "id": "bharat-bistro-001",
    "name": "Bharat Bistro",
    "phone": "+12013444638",
    "slug": "bharat-bistro",
    "clover": {
      "merchantId": "AY9ARGETAKY31",
      "apiKey": "07b98824-f00e-384e-0649-3296b2c8cdfd",
      "ecommToken": null,
      "environment": "production"
    },
    "location": {
      "address": "123 Main Street",
      "city": "Jersey City",
      "state": "NJ",
      "zipCode": "07302",
      "country": "US"
    },
    "cuisineType": "Indian",
    "logo": null,
    "primaryColor": null,
    "voiceSelection": "alloy",
    "greeting": "Hi Thank you for your call how can i help you",
    "printing": {
      "autoPrint": true,
      "defaultPrinterId": null,
      "deviceId": null,
      "printers": []
    },
    "info": "Bharat Bistro in Jersey City, NJ",
    "instructions": "You are a helpful assistant at Bharat Bistro, specializing in Indian cuisine."
  },
  "call-_+12013444638_g3UUxwkJgmgt": {
    "id": "bharat-bistro-001",
    "name": "Bharat Bistro",
    "phone": "+12013444638",
    "slug": "bharat-bistro",
    "clover": {
      "merchantId": "AY9ARGETAKY31",
      "apiKey": "07b98824-f00e-384e-0649-3296b2c8cdfd",
      "ecommToken": null,
      "environment": "production"
    },
    "location": {
      "address": "123 Main Street",
      "city": "Jersey City",
      "state": "NJ",
      "zipCode": "07302",
      "country": "US"
    },
    "cuisineType": "Indian",
    "logo": null,
    "primaryColor": null,
    "voiceSelection": "alloy",
    "greeting": "Hi Thank you for your call how can i help you",
    "printing": {
      "autoPrint": true,
      "defaultPrinterId": null,
      "deviceId": null,
      "printers": []
    },
    "info": "Bharat Bistro in Jersey City, NJ",
    "instructions": "You are a helpful assistant at Bharat Bistro, specializing in Indian cuisine."
  },
  "call-_+12013444638_2gNSmhD27Dvf": {
    "id": "bharat-bistro-001",
    "name": "Bharat Bistro",
    "phone": "+12013444638",
    "slug": "bharat-bistro",
    "clover": {
      "merchantId": "AY9ARGETAKY31",
      "apiKey": "07b98824-f00e-384e-0649-3296b2c8cdfd",
      "ecommToken": null,
      "environment": "production"
    },
    "location": {
      "address": "123 Main Street",
      "city": "Jersey City",
      "state": "NJ",
      "zipCode": "07302",
      "country": "US"
    },
    "cuisineType": "Indian",
    "logo": null,
    "primaryColor": null,
    "voiceSelection": "alloy",
    "greeting": "Hi Thank you for your call how can i help you",
    "printing": {
      "autoPrint": true,
      "defaultPrinterId": null,
      "deviceId": null,
      "printers": []
    },
    "info": "Bharat Bistro in Jersey City, NJ",
    "instructions": "You are a helpful assistant at Bharat Bistro, specializing in Indian cuisine."
  },
  "call-_+12013444638_bZDhmuRYmNzk": {
    "id": "bharat-bistro-001",
    "name": "Bharat Bistro",
    "phone": "+12013444638",
    "slug": "bharat-bistro",
    "clover": {
      "merchantId": "AY9ARGETAKY31",
      "apiKey": "07b98824-f00e-384e-0649-3296b2c8cdfd",
      "ecommToken": null,
      "environment": "production"
    },
    "location": {
      "address": "123 Main Street",
      "city": "Jersey City",
      "state": "NJ",
      "zipCode": "07302",
      "country": "US"
    },
    "cuisineType": "Indian",
    "logo": null,
    "primaryColor": null,
    "voiceSelection": "alloy",
    "greeting": "Hi Thank you for your call how can i help you",
    "printing": {
      "autoPrint": true,
      "defaultPrinterId": null,
      "deviceId": null,
      "printers": []
    },
    "info": "Bharat Bistro in Jersey City, NJ",
    "instructions": "You are a helpful assistant at Bharat Bistro, specializing in Indian cuisine."
  },
  "call-_+12013444638_TEST_f4b9i": {
    "id": "bharat-bistro-001",
    "name": "Bharat Bistro",
    "phone": "+12013444638",
    "slug": "bharat-bistro",
    "clover": {
      "merchantId": "AY9ARGETAKY31",
      "apiKey": "07b98824-f00e-384e-0649-3296b2c8cdfd",
      "ecommToken": null,
      "environment": "production"
    },
    "location": {
      "address": "123 Main Street",
      "city": "Jersey City",
      "state": "NJ",
      "zipCode": "07302",
      "country": "US"
    },
    "cuisineType": "Indian",
    "logo": null,
    "primaryColor": null,
    "voiceSelection": "alloy",
    "greeting": "Hi Thank you for your call how can i help you",
    "printing": {
      "autoPrint": true,
      "defaultPrinterId": null,
      "deviceId": null,
      "printers": []
    },
    "info": "Bharat Bistro in Jersey City, NJ",
    "instructions": "You are a helpful assistant at Bharat Bistro, specializing in Indian cuisine."
  },
  "call-_+12013444638_xYSu9Hecr5bM": {
    "id": "bharat-bistro-001",
    "name": "Bharat Bistro",
    "phone": "+12013444638",
    "slug": "bharat-bistro",
    "clover": {
      "merchantId": "AY9ARGETAKY31",
      "apiKey": "07b98824-f00e-384e-0649-3296b2c8cdfd",
      "ecommToken": null,
      "environment": "production"
    },
    "location": {
      "address": "123 Main Street",
      "city": "Jersey City",
      "state": "NJ",
      "zipCode": "07302",
      "country": "US"
    },
    "cuisineType": "Indian",
    "logo": null,
    "primaryColor": null,
    "voiceSelection": "alloy",
    "greeting": "Hi Thank you for your call how can i help you",
    "printing": {
      "autoPrint": true,
      "defaultPrinterId": null,
      "deviceId": null,
      "printers": []
    },
    "info": "Bharat Bistro in Jersey City, NJ",
    "instructions": "You are a helpful assistant at Bharat Bistro, specializing in Indian cuisine."
  },
  "call-_+12013444638_yGuZ7Mm4mS3t": {
    "id": "bharat-bistro-001",
    "name": "Bharat Bistro",
    "phone": "+12013444638",
    "slug": "bharat-bistro",
    "clover": {
      "merchantId": "AY9ARGETAKY31",
      "apiKey": "07b98824-f00e-384e-0649-3296b2c8cdfd",
      "ecommToken": null,
      "environment": "production"
    },
    "location": {
      "address": "123 Main Street",
      "city": "Jersey City",
      "state": "NJ",
      "zipCode": "07302",
      "country": "US"
    },
    "cuisineType": "Indian",
    "logo": null,
    "primaryColor": null,
    "voiceSelection": "alloy",
    "greeting": "Hi Thank you for your call how can i help you",
    "printing": {
      "autoPrint": true,
      "defaultPrinterId": null,
      "deviceId": null,
      "printers": []
    },
    "info": "Bharat Bistro in Jersey City, NJ",
    "instructions": "You are a helpful assistant at Bharat Bistro, specializing in Indian cuisine."
  },
  "call-_+12013444638_TEST_2u80c9": {
    "id": "bharat-bistro-001",
    "name": "Bharat Bistro",
    "phone": "+12013444638",
    "slug": "bharat-bistro",
    "clover": {
      "merchantId": "AY9ARGETAKY31",
      "apiKey": "07b98824-f00e-384e-0649-3296b2c8cdfd",
      "ecommToken": null,
      "environment": "production"
    },
    "location": {
      "address": "123 Main Street",
      "city": "Jersey City",
      "state": "NJ",
      "zipCode": "07302",
      "country": "US"
    },
    "cuisineType": "Indian",
    "logo": null,
    "primaryColor": null,
    "voiceSelection": "alloy",
    "greeting": "Hi Thank you for your call how can i help you",
    "printing": {
      "autoPrint": true,
      "defaultPrinterId": null,
      "deviceId": null,
      "printers": []
    },
    "info": "Bharat Bistro in Jersey City, NJ",
    "instructions": "You are a helpful assistant at Bharat Bistro, specializing in Indian cuisine."
  },
  "call-_+12013444638_XN4sWAhBmWaw": {
    "id": "bharat-bistro-001",
    "name": "Bharat Bistro",
    "phone": "+12013444638",
    "slug": "bharat-bistro",
    "clover": {
      "merchantId": "AY9ARGETAKY31",
      "apiKey": "07b98824-f00e-384e-0649-3296b2c8cdfd",
      "ecommToken": null,
      "environment": "production"
    },
    "location": {
      "address": "123 Main Street",
      "city": "Jersey City",
      "state": "NJ",
      "zipCode": "07302",
      "country": "US"
    },
    "cuisineType": "Indian",
    "logo": null,
    "primaryColor": null,
    "voiceSelection": "alloy",
    "greeting": "Hi Thank you for your call how can i help you",
    "printing": {
      "autoPrint": true,
      "defaultPrinterId": null,
      "deviceId": null,
      "printers": []
    },
    "info": "Bharat Bistro in Jersey City, NJ",
    "instructions": "You are a helpful assistant at Bharat Bistro, specializing in Indian cuisine."
  },
  "call-_+12013444638_GziycRddAFW2": {
    "id": "bharat-bistro-001",
    "name": "Bharat Bistro",
    "phone": "+12013444638",
    "slug": "bharat-bistro",
    "clover": {
      "merchantId": "AY9ARGETAKY31",
      "apiKey": "07b98824-f00e-384e-0649-3296b2c8cdfd",
      "ecommToken": null,
      "environment": "production"
    },
    "location": {
      "address": "123 Main Street",
      "city": "Jersey City",
      "state": "NJ",
      "zipCode": "07302",
      "country": "US"
    },
    "cuisineType": "Indian",
    "logo": null,
    "primaryColor": null,
    "voiceSelection": "alloy",
    "greeting": "Hi Thank you for your call how can i help you",
    "printing": {
      "autoPrint": true,
      "defaultPrinterId": null,
      "deviceId": null,
      "printers": []
    },
    "info": "Bharat Bistro in Jersey City, NJ",
    "instructions": "You are a helpful assistant at Bharat Bistro, specializing in Indian cuisine."
  },
  "call-_+12013444638_TEST_pjfdph": {
    "id": "bharat-bistro-001",
    "name": "Bharat Bistro",
    "phone": "+12013444638",
    "slug": "bharat-bistro",
    "clover": {
      "merchantId": "AY9ARGETAKY31",
      "apiKey": "07b98824-f00e-384e-0649-3296b2c8cdfd",
      "ecommToken": null,
      "environment": "production"
    },
    "location": {
      "address": "123 Main Street",
      "city": "Jersey City",
      "state": "NJ",
      "zipCode": "07302",
      "country": "US"
    },
    "cuisineType": "Indian",
    "logo": null,
    "primaryColor": null,
    "voiceSelection": "alloy",
    "greeting": "Hi Thank you for your call how can i help you",
    "printing": {
      "autoPrint": true,
      "defaultPrinterId": null,
      "deviceId": null,
      "printers": []
    },
    "info": "Bharat Bistro in Jersey City, NJ",
    "instructions": "You are a helpful assistant at Bharat Bistro, specializing in Indian cuisine."
  },
  "call-_+12013444638_aHowV4mm9Qg7": {
    "id": "bharat-bistro-001",
    "name": "Bharat Bistro",
    "phone": "+12013444638",
    "slug": "bharat-bistro",
    "clover": {
      "merchantId": "AY9ARGETAKY31",
      "apiKey": "07b98824-f00e-384e-0649-3296b2c8cdfd",
      "ecommToken": null,
      "environment": "production"
    },
    "location": {
      "address": "123 Main Street",
      "city": "Jersey City",
      "state": "NJ",
      "zipCode": "07302",
      "country": "US"
    },
    "cuisineType": "Indian",
    "logo": null,
    "primaryColor": null,
    "voiceSelection": "alloy",
    "greeting": "Hi Thank you for your call how can i help you",
    "printing": {
      "autoPrint": true,
      "defaultPrinterId": null,
      "deviceId": null,
      "printers": []
    },
    "info": "Bharat Bistro in Jersey City, NJ",
    "instructions": "You are a helpful assistant at Bharat Bistro, specializing in Indian cuisine."
  },
  "call-_+12013444638_TEST_1zbx9": {
    "id": "bharat-bistro-001",
    "name": "Bharat Bistro",
    "phone": "+12013444638",
    "slug": "bharat-bistro",
    "clover": {
      "merchantId": "AY9ARGETAKY31",
      "apiKey": "07b98824-f00e-384e-0649-3296b2c8cdfd",
      "ecommToken": null,
      "environment": "production"
    },
    "location": {
      "address": "123 Main Street",
      "city": "Jersey City",
      "state": "NJ",
      "zipCode": "07302",
      "country": "US"
    },
    "cuisineType": "Indian",
    "logo": null,
    "primaryColor": null,
    "voiceSelection": "alloy",
    "greeting": "Hi Thank you for your call how can i help you",
    "printing": {
      "autoPrint": true,
      "defaultPrinterId": null,
      "deviceId": null,
      "printers": []
    },
    "info": "Bharat Bistro in Jersey City, NJ",
    "instructions": "You are a helpful assistant at Bharat Bistro, specializing in Indian cuisine."
  },
  "call-_+12013444638_JS6Gye24eNHa": {
    "id": "bharat-bistro-001",
    "name": "Bharat Bistro",
    "phone": "+12013444638",
    "slug": "bharat-bistro",
    "clover": {
      "merchantId": "AY9ARGETAKY31",
      "apiKey": "07b98824-f00e-384e-0649-3296b2c8cdfd",
      "ecommToken": null,
      "environment": "production"
    },
    "location": {
      "address": "123 Main Street",
      "city": "Jersey City",
      "state": "NJ",
      "zipCode": "07302",
      "country": "US"
    },
    "cuisineType": "Indian",
    "logo": null,
    "primaryColor": null,
    "voiceSelection": "alloy",
    "greeting": "Hi Thank you for your call how can i help you",
    "printing": {
      "autoPrint": true,
      "defaultPrinterId": null,
      "deviceId": null,
      "printers": []
    },
    "info": "Bharat Bistro in Jersey City, NJ",
    "instructions": "You are a helpful assistant at Bharat Bistro, specializing in Indian cuisine."
  },
  "call-_+12013444638_g836YR8nFfun": {
    "id": "bharat-bistro-001",
    "name": "Bharat Bistro",
    "phone": "+12013444638",
    "slug": "bharat-bistro",
    "clover": {
      "merchantId": "AY9ARGETAKY31",
      "apiKey": "07b98824-f00e-384e-0649-3296b2c8cdfd",
      "ecommToken": null,
      "environment": "production"
    },
    "location": {
      "address": "123 Main Street",
      "city": "Jersey City",
      "state": "NJ",
      "zipCode": "07302",
      "country": "US"
    },
    "cuisineType": "Indian",
    "logo": null,
    "primaryColor": null,
    "voiceSelection": "alloy",
    "greeting": "Hi Thank you for your call how can i help you",
    "printing": {
      "autoPrint": true,
      "defaultPrinterId": null,
      "deviceId": null,
      "printers": []
    },
    "info": "Bharat Bistro in Jersey City, NJ",
    "instructions": "You are a helpful assistant at Bharat Bistro, specializing in Indian cuisine."
  },
  "call-_+12013444638_frc8r954apE9": {
    "id": "bharat-bistro-001",
    "name": "Bharat Bistro",
    "phone": "+12013444638",
    "slug": "bharat-bistro",
    "clover": {
      "merchantId": "AY9ARGETAKY31",
      "apiKey": "07b98824-f00e-384e-0649-3296b2c8cdfd",
      "ecommToken": null,
      "environment": "production"
    },
    "location": {
      "address": "123 Main Street",
      "city": "Jersey City",
      "state": "NJ",
      "zipCode": "07302",
      "country": "US"
    },
    "cuisineType": "Indian",
    "logo": null,
    "primaryColor": null,
    "voiceSelection": "alloy",
    "greeting": "Hi Thank you for your call how can i help you",
    "printing": {
      "autoPrint": true,
      "defaultPrinterId": null,
      "deviceId": null,
      "printers": []
    },
    "info": "Bharat Bistro in Jersey City, NJ",
    "instructions": "You are a helpful assistant at Bharat Bistro, specializing in Indian cuisine."
  },
  "call-_+12013444638_TEST_9isfjo": {
    "id": "bharat-bistro-001",
    "name": "Bharat Bistro",
    "phone": "+12013444638",
    "slug": "bharat-bistro",
    "clover": {
      "merchantId": "AY9ARGETAKY31",
      "apiKey": "07b98824-f00e-384e-0649-3296b2c8cdfd",
      "ecommToken": null,
      "environment": "production"
    },
    "location": {
      "address": "123 Main Street",
      "city": "Jersey City",
      "state": "NJ",
      "zipCode": "07302",
      "country": "US"
    },
    "cuisineType": "Indian",
    "logo": null,
    "primaryColor": null,
    "voiceSelection": "alloy",
    "greeting": "Hi Thank you for your call how can i help you",
    "printing": {
      "autoPrint": true,
      "defaultPrinterId": null,
      "deviceId": null,
      "printers": []
    },
    "info": "Bharat Bistro in Jersey City, NJ",
    "instructions": "You are a helpful assistant at Bharat Bistro, specializing in Indian cuisine."
  }
}